{
    "features": [
        {
            "geometry": {
                "coordinates": [
                    2.301830266666667,
                    48.810917700000005
                ],
                "type": "Point"
            },
            "id": 1238852857474325,
            "properties": {
                "id": "1238852857474325",
                "station_label": "ch tillon montrouge"
            },
            "type": "Feature"
        },
        {
            "geometry": {
                "coordinates": [
                    2.2969858,
                    48.815329
                ],
                "type": "Point"
            },
            "id": 12388534,
            "properties": {
                "id": "12388534",
                "station_label": "malakoff rue tienne dolet"
            },
            "type": "Feature"
        },
        {
            "geometry": {
                "coordinates": [
                    2.2498767333333336,
                    48.88812099999999
                ],
                "type": "Point"
            },
            "id": 2733209251399490,
            "properties": {
                "id": "2733209251399490",
                "station_label": "esplanade de la d fense"
            },
            "type": "Feature"
        },
        {
            "geometry": {
                "coordinates": [
                    2.2720146,
                    48.88091765
                ],
                "type": "Point"
            },
            "id": 2736223851081678,
            "properties": {
                "id": "2736223851081678",
                "station_label": "les sablons"
            },
            "type": "Feature"
        },
        {
            "geometry": {
                "coordinates": [
                    2.2893708999999998,
                    48.8755861
                ],
                "type": "Point"
            },
            "id": 2736224052267082,
            "properties": {
                "id": "2736224052267082",
                "station_label": "argentine"
            },
            "type": "Feature"
        },
        {
            "geometry": {
                "coordinates": [
                    2.3004214000000003,
                    48.87207525
                ],
                "type": "Point"
            },
            "id": 2736224952267082,
            "properties": {
                "id": "2736224952267082",
                "station_label": "george v"
            },
            "type": "Feature"
        },
        {
            "geometry": {
                "coordinates": [
                    2.3084921,
                    48.869150225
                ],
                "type": "Point"
            },
            "id": 2736225131493590,
            "properties": {
                "id": "2736225131493590",
                "station_label": "franklin d roosevelt"
            },
            "type": "Feature"
        },
        {
            "geometry": {
                "coordinates": [
                    2.32225124,
                    48.866137699999996
                ],
                "type": "Point"
            },
            "id": 2736225726391785,
            "properties": {
                "id": "2736225726391785",
                "station_label": "concorde"
            },
            "type": "Feature"
        },
        {
            "geometry": {
                "coordinates": [
                    2.330436,
                    48.864244
                ],
                "type": "Point"
            },
            "id": 27362258,
            "properties": {
                "id": "27362258",
                "station_label": "tuileries"
            },
            "type": "Feature"
        },
        {
            "geometry": {
                "coordinates": [
                    2.34112935,
                    48.860808750000004
                ],
                "type": "Point"
            },
            "id": 2736226052266303,
            "properties": {
                "id": "2736226052266303",
                "station_label": "louvre rivoli"
            },
            "type": "Feature"
        },
        {
            "geometry": {
                "coordinates": [
                    2.3468478499999996,
                    48.8589458
                ],
                "type": "Point"
            },
            "id": 2737186231469580,
            "properties": {
                "id": "2737186231469580",
                "station_label": "ch telet"
            },
            "type": "Feature"
        },
        {
            "geometry": {
                "coordinates": [
                    2.3603522,
                    48.8553789
                ],
                "type": "Point"
            },
            "id": 27371867,
            "properties": {
                "id": "27371867",
                "station_label": "saint paul"
            },
            "type": "Feature"
        },
        {
            "geometry": {
                "coordinates": [
                    2.368797075,
                    48.85296609999999
                ],
                "type": "Point"
            },
            "id": 2737187626448061,
            "properties": {
                "id": "2737187626448061",
                "station_label": "bastille"
            },
            "type": "Feature"
        },
        {
            "geometry": {
                "coordinates": [
                    2.373568666666667,
                    48.844831633333335
                ],
                "type": "Point"
            },
            "id": 2737188916569387,
            "properties": {
                "id": "2737188916569387",
                "station_label": "gare de lyon"
            },
            "type": "Feature"
        },
        {
            "geometry": {
                "coordinates": [
                    2.3862841666666665,
                    48.8472055
                ],
                "type": "Point"
            },
            "id": 2737189243175891,
            "properties": {
                "id": "2737189243175891",
                "station_label": "reuilly diderot"
            },
            "type": "Feature"
        },
        {
            "geometry": {
                "coordinates": [
                    2.4080861,
                    48.8473335
                ],
                "type": "Point"
            },
            "id": 27371900,
            "properties": {
                "id": "27371900",
                "station_label": "porte de vincennes"
            },
            "type": "Feature"
        },
        {
            "geometry": {
                "coordinates": [
                    2.2435931,
                    48.8336468
                ],
                "type": "Point"
            },
            "id": 29588070,
            "properties": {
                "id": "29588070",
                "station_label": "marcel sembat"
            },
            "type": "Feature"
        },
        {
            "geometry": {
                "coordinates": [
                    2.2985368999999998,
                    48.849423560000005
                ],
                "type": "Point"
            },
            "id": 3490917014996415,
            "properties": {
                "id": "3490917014996415",
                "station_label": "la motte picquet grenelle"
            },
            "type": "Feature"
        },
        {
            "geometry": {
                "coordinates": [
                    2.3029524,
                    48.8475338
                ],
                "type": "Point"
            },
            "id": 34909171,
            "properties": {
                "id": "34909171",
                "station_label": "cambronne"
            },
            "type": "Feature"
        },
        {
            "geometry": {
                "coordinates": [
                    2.2936685,
                    48.8504212
                ],
                "type": "Point"
            },
            "id": 34909187,
            "properties": {
                "id": "34909187",
                "station_label": "dupleix"
            },
            "type": "Feature"
        },
        {
            "geometry": {
                "coordinates": [
                    2.2731713,
                    48.8241474
                ],
                "type": "Point"
            },
            "id": 134299001,
            "properties": {
                "id": "134299001",
                "station_label": "mairie d issy"
            },
            "type": "Feature"
        },
        {
            "geometry": {
                "coordinates": [
                    2.2793746,
                    48.8270526
                ],
                "type": "Point"
            },
            "id": 134299013,
            "properties": {
                "id": "134299013",
                "station_label": "corentin celton"
            },
            "type": "Feature"
        },
        {
            "geometry": {
                "coordinates": [
                    2.2879898,
                    48.8324292
                ],
                "type": "Point"
            },
            "id": 134305192,
            "properties": {
                "id": "134305192",
                "station_label": "porte de versailles"
            },
            "type": "Feature"
        },
        {
            "geometry": {
                "coordinates": [
                    2.2966292,
                    48.8373091
                ],
                "type": "Point"
            },
            "id": 134305198,
            "properties": {
                "id": "134305198",
                "station_label": "convention"
            },
            "type": "Feature"
        },
        {
            "geometry": {
                "coordinates": [
                    2.2380711,
                    48.8918848
                ],
                "type": "Point"
            },
            "id": 1375332481953056,
            "properties": {
                "id": "1375332481953056",
                "station_label": "la d fense grande arche"
            },
            "type": "Feature"
        },
        {
            "geometry": {
                "coordinates": [
                    2.3256519,
                    48.8236353
                ],
                "type": "Point"
            },
            "id": 220289379,
            "properties": {
                "id": "220289379",
                "station_label": "porte d orl ans"
            },
            "type": "Feature"
        },
        {
            "geometry": {
                "coordinates": [
                    2.3270406,
                    48.8280318
                ],
                "type": "Point"
            },
            "id": 220289382,
            "properties": {
                "id": "220289382",
                "station_label": "al sia"
            },
            "type": "Feature"
        },
        {
            "geometry": {
                "coordinates": [
                    2.3298549,
                    48.8312847
                ],
                "type": "Point"
            },
            "id": 220289385,
            "properties": {
                "id": "220289385",
                "station_label": "mouton duvernet"
            },
            "type": "Feature"
        },
        {
            "geometry": {
                "coordinates": [
                    2.3326006,
                    48.83431529999999
                ],
                "type": "Point"
            },
            "id": 2202893874317624,
            "properties": {
                "id": "2202893874317624",
                "station_label": "denfert rochereau"
            },
            "type": "Feature"
        },
        {
            "geometry": {
                "coordinates": [
                    2.3307591,
                    48.8389619
                ],
                "type": "Point"
            },
            "id": 220289389,
            "properties": {
                "id": "220289389",
                "station_label": "raspail"
            },
            "type": "Feature"
        },
        {
            "geometry": {
                "coordinates": [
                    2.3366395,
                    48.83302825
                ],
                "type": "Point"
            },
            "id": 2353698985226630,
            "properties": {
                "id": "2353698985226630",
                "station_label": "saint jacques"
            },
            "type": "Feature"
        },
        {
            "geometry": {
                "coordinates": [
                    2.3434842,
                    48.8311288
                ],
                "type": "Point"
            },
            "id": 235370184,
            "properties": {
                "id": "235370184",
                "station_label": "glaci re"
            },
            "type": "Feature"
        },
        {
            "geometry": {
                "coordinates": [
                    2.3504704,
                    48.8297785
                ],
                "type": "Point"
            },
            "id": 235370505,
            "properties": {
                "id": "235370505",
                "station_label": "corvisart"
            },
            "type": "Feature"
        },
        {
            "geometry": {
                "coordinates": [
                    2.3558324500000003,
                    48.83099005
                ],
                "type": "Point"
            },
            "id": 2353713924317624,
            "properties": {
                "id": "2353713924317624",
                "station_label": "place d italie"
            },
            "type": "Feature"
        },
        {
            "geometry": {
                "coordinates": [
                    2.3628553,
                    48.8331986
                ],
                "type": "Point"
            },
            "id": 235371394,
            "properties": {
                "id": "235371394",
                "station_label": "nationale"
            },
            "type": "Feature"
        },
        {
            "geometry": {
                "coordinates": [
                    2.3680817,
                    48.8349549
                ],
                "type": "Point"
            },
            "id": 235371395,
            "properties": {
                "id": "235371395",
                "station_label": "chevaleret"
            },
            "type": "Feature"
        },
        {
            "geometry": {
                "coordinates": [
                    2.3729066,
                    48.8370762
                ],
                "type": "Point"
            },
            "id": 235374383,
            "properties": {
                "id": "235374383",
                "station_label": "quai de la gare"
            },
            "type": "Feature"
        },
        {
            "geometry": {
                "coordinates": [
                    2.3672405,
                    48.884463860000004
                ],
                "type": "Point"
            },
            "id": 2353777921326929,
            "properties": {
                "id": "2353777921326929",
                "station_label": "stalingrad"
            },
            "type": "Feature"
        },
        {
            "geometry": {
                "coordinates": [
                    2.3958018,
                    48.84794406666666
                ],
                "type": "Point"
            },
            "id": 2419285572194750,
            "properties": {
                "id": "2419285572194750",
                "station_label": "nation"
            },
            "type": "Feature"
        },
        {
            "geometry": {
                "coordinates": [
                    2.438912,
                    48.8445799
                ],
                "type": "Point"
            },
            "id": 241928757,
            "properties": {
                "id": "241928757",
                "station_label": "ch teau de vincennes"
            },
            "type": "Feature"
        },
        {
            "geometry": {
                "coordinates": [
                    2.4292637,
                    48.8454473
                ],
                "type": "Point"
            },
            "id": 241928758,
            "properties": {
                "id": "241928758",
                "station_label": "b rault"
            },
            "type": "Feature"
        },
        {
            "geometry": {
                "coordinates": [
                    2.3812008,
                    48.8783961
                ],
                "type": "Point"
            },
            "id": 243357000,
            "properties": {
                "id": "243357000",
                "station_label": "buttes chaumont"
            },
            "type": "Feature"
        },
        {
            "geometry": {
                "coordinates": [
                    2.3739077,
                    48.8809263
                ],
                "type": "Point"
            },
            "id": 243358029,
            "properties": {
                "id": "243358029",
                "station_label": "bolivar"
            },
            "type": "Feature"
        },
        {
            "geometry": {
                "coordinates": [
                    2.4013757,
                    48.8518166
                ],
                "type": "Point"
            },
            "id": 243486950,
            "properties": {
                "id": "243486950",
                "station_label": "buzenval"
            },
            "type": "Feature"
        },
        {
            "geometry": {
                "coordinates": [
                    2.4184422,
                    48.846435
                ],
                "type": "Point"
            },
            "id": 243487863,
            "properties": {
                "id": "243487863",
                "station_label": "saint mand "
            },
            "type": "Feature"
        },
        {
            "geometry": {
                "coordinates": [
                    2.3979296,
                    48.8520027
                ],
                "type": "Point"
            },
            "id": 243489718,
            "properties": {
                "id": "243489718",
                "station_label": "avron"
            },
            "type": "Feature"
        },
        {
            "geometry": {
                "coordinates": [
                    2.3836703,
                    48.8663246
                ],
                "type": "Point"
            },
            "id": 243490761,
            "properties": {
                "id": "243490761",
                "station_label": "m nilmontant"
            },
            "type": "Feature"
        },
        {
            "geometry": {
                "coordinates": [
                    2.3871916333333334,
                    48.86277473333333
                ],
                "type": "Point"
            },
            "id": 2434907623703619,
            "properties": {
                "id": "2434907623703619",
                "station_label": "p re lachaise"
            },
            "type": "Feature"
        },
        {
            "geometry": {
                "coordinates": [
                    2.3901666,
                    48.8582563
                ],
                "type": "Point"
            },
            "id": 243490763,
            "properties": {
                "id": "243490763",
                "station_label": "philippe auguste"
            },
            "type": "Feature"
        },
        {
            "geometry": {
                "coordinates": [
                    2.3944977,
                    48.8563062
                ],
                "type": "Point"
            },
            "id": 243490764,
            "properties": {
                "id": "243490764",
                "station_label": "alexandre dumas"
            },
            "type": "Feature"
        },
        {
            "geometry": {
                "coordinates": [
                    2.3768859,
                    48.872198433333324
                ],
                "type": "Point"
            },
            "id": 2434938452002549,
            "properties": {
                "id": "2434938452002549",
                "station_label": "belleville"
            },
            "type": "Feature"
        },
        {
            "geometry": {
                "coordinates": [
                    2.3805811,
                    48.8690435
                ],
                "type": "Point"
            },
            "id": 243493846,
            "properties": {
                "id": "243493846",
                "station_label": "couronnes"
            },
            "type": "Feature"
        },
        {
            "geometry": {
                "coordinates": [
                    2.3710197,
                    48.8774215
                ],
                "type": "Point"
            },
            "id": 243493916,
            "properties": {
                "id": "243493916",
                "station_label": "colonel fabien"
            },
            "type": "Feature"
        },
        {
            "geometry": {
                "coordinates": [
                    2.370862,
                    48.8823144
                ],
                "type": "Point"
            },
            "id": 2434943341997722,
            "properties": {
                "id": "2434943341997722",
                "station_label": "jaur s"
            },
            "type": "Feature"
        },
        {
            "geometry": {
                "coordinates": [
                    2.3445849666666665,
                    48.88295203333333
                ],
                "type": "Point"
            },
            "id": 2434949983417692,
            "properties": {
                "id": "2434949983417692",
                "station_label": "anvers"
            },
            "type": "Feature"
        },
        {
            "geometry": {
                "coordinates": [
                    2.3336343,
                    48.8834886
                ],
                "type": "Point"
            },
            "id": 243496025,
            "properties": {
                "id": "243496025",
                "station_label": "blanche"
            },
            "type": "Feature"
        },
        {
            "geometry": {
                "coordinates": [
                    2.3276367,
                    48.88361153333333
                ],
                "type": "Point"
            },
            "id": 2434960273703619,
            "properties": {
                "id": "2434960273703619",
                "station_label": "place de clichy"
            },
            "type": "Feature"
        },
        {
            "geometry": {
                "coordinates": [
                    2.3213306,
                    48.8822428
                ],
                "type": "Point"
            },
            "id": 243496028,
            "properties": {
                "id": "243496028",
                "station_label": "rome"
            },
            "type": "Feature"
        },
        {
            "geometry": {
                "coordinates": [
                    2.3149051,
                    48.8811192
                ],
                "type": "Point"
            },
            "id": 243496029,
            "properties": {
                "id": "243496029",
                "station_label": "villiers"
            },
            "type": "Feature"
        },
        {
            "geometry": {
                "coordinates": [
                    2.3085925,
                    48.8802919
                ],
                "type": "Point"
            },
            "id": 243496030,
            "properties": {
                "id": "243496030",
                "station_label": "monceau"
            },
            "type": "Feature"
        },
        {
            "geometry": {
                "coordinates": [
                    2.2777713,
                    48.871318
                ],
                "type": "Point"
            },
            "id": 243496729,
            "properties": {
                "id": "243496729",
                "station_label": "porte dauphine"
            },
            "type": "Feature"
        },
        {
            "geometry": {
                "coordinates": [
                    2.416682,
                    48.8653357
                ],
                "type": "Point"
            },
            "id": 243507233,
            "properties": {
                "id": "243507233",
                "station_label": "gallieni"
            },
            "type": "Feature"
        },
        {
            "geometry": {
                "coordinates": [
                    2.408809,
                    48.8645859
                ],
                "type": "Point"
            },
            "id": 243507234,
            "properties": {
                "id": "243507234",
                "station_label": "porte de bagnolet"
            },
            "type": "Feature"
        },
        {
            "geometry": {
                "coordinates": [
                    2.3794812,
                    48.8643338
                ],
                "type": "Point"
            },
            "id": 243507789,
            "properties": {
                "id": "243507789",
                "station_label": "rue saint maur"
            },
            "type": "Feature"
        },
        {
            "geometry": {
                "coordinates": [
                    2.3739112,
                    48.8653786
                ],
                "type": "Point"
            },
            "id": 243507790,
            "properties": {
                "id": "243507790",
                "station_label": "parmentier"
            },
            "type": "Feature"
        },
        {
            "geometry": {
                "coordinates": [
                    2.3638024,
                    48.86766983333334
                ],
                "type": "Point"
            },
            "id": 2435077913193939,
            "properties": {
                "id": "2435077913193939",
                "station_label": "r publique"
            },
            "type": "Feature"
        },
        {
            "geometry": {
                "coordinates": [
                    2.3607272,
                    48.8664933
                ],
                "type": "Point"
            },
            "id": 243507792,
            "properties": {
                "id": "243507792",
                "station_label": "temple"
            },
            "type": "Feature"
        },
        {
            "geometry": {
                "coordinates": [
                    2.356176466666667,
                    48.86544503333334
                ],
                "type": "Point"
            },
            "id": 2435077933703657,
            "properties": {
                "id": "2435077933703657",
                "station_label": "arts et m tiers"
            },
            "type": "Feature"
        },
        {
            "geometry": {
                "coordinates": [
                    2.3414739,
                    48.8686296
                ],
                "type": "Point"
            },
            "id": 243510334,
            "properties": {
                "id": "243510334",
                "station_label": "bourse"
            },
            "type": "Feature"
        },
        {
            "geometry": {
                "coordinates": [
                    2.3359026,
                    48.8695954
                ],
                "type": "Point"
            },
            "id": 243510335,
            "properties": {
                "id": "243510335",
                "station_label": "quatre septembre"
            },
            "type": "Feature"
        },
        {
            "geometry": {
                "coordinates": [
                    2.33232782,
                    48.87047408
                ],
                "type": "Point"
            },
            "id": 2435103363701328,
            "properties": {
                "id": "2435103363701328",
                "station_label": "op ra"
            },
            "type": "Feature"
        },
        {
            "geometry": {
                "coordinates": [
                    2.3278804999999996,
                    48.87349333333333
                ],
                "type": "Point"
            },
            "id": 2435103373703657,
            "properties": {
                "id": "2435103373703657",
                "station_label": "havre caumartin"
            },
            "type": "Feature"
        },
        {
            "geometry": {
                "coordinates": [
                    2.3254764,
                    48.87552
                ],
                "type": "Point"
            },
            "id": 2435103386349961,
            "properties": {
                "id": "2435103386349961",
                "station_label": "saint lazare"
            },
            "type": "Feature"
        },
        {
            "geometry": {
                "coordinates": [
                    2.3092267,
                    48.8828567
                ],
                "type": "Point"
            },
            "id": 243510678,
            "properties": {
                "id": "243510678",
                "station_label": "malesherbes"
            },
            "type": "Feature"
        },
        {
            "geometry": {
                "coordinates": [
                    2.3037188,
                    48.884005
                ],
                "type": "Point"
            },
            "id": 243510679,
            "properties": {
                "id": "243510679",
                "station_label": "wagram"
            },
            "type": "Feature"
        },
        {
            "geometry": {
                "coordinates": [
                    2.2982736,
                    48.8848146
                ],
                "type": "Point"
            },
            "id": 243510680,
            "properties": {
                "id": "243510680",
                "station_label": "pereire"
            },
            "type": "Feature"
        },
        {
            "geometry": {
                "coordinates": [
                    2.2934906,
                    48.8859272
                ],
                "type": "Point"
            },
            "id": 243510681,
            "properties": {
                "id": "243510681",
                "station_label": "porte de champerret"
            },
            "type": "Feature"
        },
        {
            "geometry": {
                "coordinates": [
                    2.3012923,
                    48.8395785
                ],
                "type": "Point"
            },
            "id": 244494486,
            "properties": {
                "id": "244494486",
                "station_label": "vaugirard"
            },
            "type": "Feature"
        },
        {
            "geometry": {
                "coordinates": [
                    2.3080031,
                    48.8415194
                ],
                "type": "Point"
            },
            "id": 244494489,
            "properties": {
                "id": "244494489",
                "station_label": "volontaires"
            },
            "type": "Feature"
        },
        {
            "geometry": {
                "coordinates": [
                    2.3175634,
                    48.8443954
                ],
                "type": "Point"
            },
            "id": 244494496,
            "properties": {
                "id": "244494496",
                "station_label": "falgui re"
            },
            "type": "Feature"
        },
        {
            "geometry": {
                "coordinates": [
                    2.3166421,
                    48.84690663333333
                ],
                "type": "Point"
            },
            "id": 2452507554318516,
            "properties": {
                "id": "2452507554318516",
                "station_label": "duroc"
            },
            "type": "Feature"
        },
        {
            "geometry": {
                "coordinates": [
                    2.3144012,
                    48.851398
                ],
                "type": "Point"
            },
            "id": 245250758,
            "properties": {
                "id": "245250758",
                "station_label": "saint fran ois xavier"
            },
            "type": "Feature"
        },
        {
            "geometry": {
                "coordinates": [
                    2.3150585,
                    48.8568023
                ],
                "type": "Point"
            },
            "id": 245250759,
            "properties": {
                "id": "245250759",
                "station_label": "varenne"
            },
            "type": "Feature"
        },
        {
            "geometry": {
                "coordinates": [
                    2.4008936,
                    48.8413372
                ],
                "type": "Point"
            },
            "id": 245455187,
            "properties": {
                "id": "245455187",
                "station_label": "bel air"
            },
            "type": "Feature"
        },
        {
            "geometry": {
                "coordinates": [
                    2.3599967,
                    48.8905061
                ],
                "type": "Point"
            },
            "id": 249335596,
            "properties": {
                "id": "249335596",
                "station_label": "marx dormoy"
            },
            "type": "Feature"
        },
        {
            "geometry": {
                "coordinates": [
                    2.2946689,
                    48.9164046
                ],
                "type": "Point"
            },
            "id": 249524554,
            "properties": {
                "id": "249524554",
                "station_label": "gabriel p ri"
            },
            "type": "Feature"
        },
        {
            "geometry": {
                "coordinates": [
                    2.3607546,
                    48.8711191
                ],
                "type": "Point"
            },
            "id": 251387813,
            "properties": {
                "id": "251387813",
                "station_label": "jacques bonsergent"
            },
            "type": "Feature"
        },
        {
            "geometry": {
                "coordinates": [
                    2.2850318,
                    48.8920499
                ],
                "type": "Point"
            },
            "id": 255000799,
            "properties": {
                "id": "255000799",
                "station_label": "anatole france"
            },
            "type": "Feature"
        },
        {
            "geometry": {
                "coordinates": [
                    2.4357587,
                    48.857946
                ],
                "type": "Point"
            },
            "id": 255160720,
            "properties": {
                "id": "255160720",
                "station_label": "croix de chavaux"
            },
            "type": "Feature"
        },
        {
            "geometry": {
                "coordinates": [
                    2.441569,
                    48.8625988
                ],
                "type": "Point"
            },
            "id": 255160722,
            "properties": {
                "id": "255160722",
                "station_label": "mairie de montreuil"
            },
            "type": "Feature"
        },
        {
            "geometry": {
                "coordinates": [
                    2.2803973,
                    48.8971408
                ],
                "type": "Point"
            },
            "id": 255161921,
            "properties": {
                "id": "255161921",
                "station_label": "pont de levallois b con"
            },
            "type": "Feature"
        },
        {
            "geometry": {
                "coordinates": [
                    2.2884734,
                    48.8882803
                ],
                "type": "Point"
            },
            "id": 255162203,
            "properties": {
                "id": "255162203",
                "station_label": "louise michel"
            },
            "type": "Feature"
        },
        {
            "geometry": {
                "coordinates": [
                    2.4061094,
                    48.8526992
                ],
                "type": "Point"
            },
            "id": 256441194,
            "properties": {
                "id": "256441194",
                "station_label": "mara chers"
            },
            "type": "Feature"
        },
        {
            "geometry": {
                "coordinates": [
                    2.4237108,
                    48.8558145
                ],
                "type": "Point"
            },
            "id": 256442845,
            "properties": {
                "id": "256442845",
                "station_label": "robespierre"
            },
            "type": "Feature"
        },
        {
            "geometry": {
                "coordinates": [
                    2.3887914,
                    48.8525808
                ],
                "type": "Point"
            },
            "id": 256443205,
            "properties": {
                "id": "256443205",
                "station_label": "rue des boulets"
            },
            "type": "Feature"
        },
        {
            "geometry": {
                "coordinates": [
                    2.3853565,
                    48.8547441
                ],
                "type": "Point"
            },
            "id": 256443438,
            "properties": {
                "id": "256443438",
                "station_label": "charonne"
            },
            "type": "Feature"
        },
        {
            "geometry": {
                "coordinates": [
                    2.3798044,
                    48.858158
                ],
                "type": "Point"
            },
            "id": 256895321,
            "properties": {
                "id": "256895321",
                "station_label": "voltaire"
            },
            "type": "Feature"
        },
        {
            "geometry": {
                "coordinates": [
                    2.3747956,
                    48.8610516
                ],
                "type": "Point"
            },
            "id": 256895609,
            "properties": {
                "id": "256895609",
                "station_label": "saint ambroise"
            },
            "type": "Feature"
        },
        {
            "geometry": {
                "coordinates": [
                    2.3694165,
                    48.8640529
                ],
                "type": "Point"
            },
            "id": 256896059,
            "properties": {
                "id": "256896059",
                "station_label": "oberkampf"
            },
            "type": "Feature"
        },
        {
            "geometry": {
                "coordinates": [
                    2.3487498,
                    48.8706233
                ],
                "type": "Point"
            },
            "id": 256897078,
            "properties": {
                "id": "256897078",
                "station_label": "bonne nouvelle"
            },
            "type": "Feature"
        },
        {
            "geometry": {
                "coordinates": [
                    2.3434953,
                    48.8714412
                ],
                "type": "Point"
            },
            "id": 256897079,
            "properties": {
                "id": "256897079",
                "station_label": "grands boulevards"
            },
            "type": "Feature"
        },
        {
            "geometry": {
                "coordinates": [
                    2.3396056,
                    48.8718846
                ],
                "type": "Point"
            },
            "id": 256897080,
            "properties": {
                "id": "256897080",
                "station_label": "richelieu drouot"
            },
            "type": "Feature"
        },
        {
            "geometry": {
                "coordinates": [
                    2.3199277,
                    48.8746968
                ],
                "type": "Point"
            },
            "id": 256897554,
            "properties": {
                "id": "256897554",
                "station_label": "saint augustin"
            },
            "type": "Feature"
        },
        {
            "geometry": {
                "coordinates": [
                    2.3658671,
                    48.84652206666667
                ],
                "type": "Point"
            },
            "id": 2580687243419908,
            "properties": {
                "id": "2580687243419908",
                "station_label": "quai de la rap e"
            },
            "type": "Feature"
        },
        {
            "geometry": {
                "coordinates": [
                    2.351772,
                    48.8465283
                ],
                "type": "Point"
            },
            "id": 260078615,
            "properties": {
                "id": "260078615",
                "station_label": "cardinal lemoine"
            },
            "type": "Feature"
        },
        {
            "geometry": {
                "coordinates": [
                    2.3487756,
                    48.8499484
                ],
                "type": "Point"
            },
            "id": 260078619,
            "properties": {
                "id": "260078619",
                "station_label": "maubert mutualit "
            },
            "type": "Feature"
        },
        {
            "geometry": {
                "coordinates": [
                    2.344207,
                    48.8510699
                ],
                "type": "Point"
            },
            "id": 260078622,
            "properties": {
                "id": "260078622",
                "station_label": "cluny la sorbonne"
            },
            "type": "Feature"
        },
        {
            "geometry": {
                "coordinates": [
                    2.3393800000000002,
                    48.852310700000004
                ],
                "type": "Point"
            },
            "id": 2600790084317669,
            "properties": {
                "id": "2600790084317669",
                "station_label": "od on"
            },
            "type": "Feature"
        },
        {
            "geometry": {
                "coordinates": [
                    2.3349474,
                    48.8528994
                ],
                "type": "Point"
            },
            "id": 260079322,
            "properties": {
                "id": "260079322",
                "station_label": "mabillon"
            },
            "type": "Feature"
        },
        {
            "geometry": {
                "coordinates": [
                    2.278379,
                    48.8363968
                ],
                "type": "Point"
            },
            "id": 260231828,
            "properties": {
                "id": "260231828",
                "station_label": "balard"
            },
            "type": "Feature"
        },
        {
            "geometry": {
                "coordinates": [
                    2.2821481,
                    48.8387364
                ],
                "type": "Point"
            },
            "id": 260231831,
            "properties": {
                "id": "260231831",
                "station_label": "lourmel"
            },
            "type": "Feature"
        },
        {
            "geometry": {
                "coordinates": [
                    2.2879218,
                    48.8410837
                ],
                "type": "Point"
            },
            "id": 260231832,
            "properties": {
                "id": "260231832",
                "station_label": "boucicaut"
            },
            "type": "Feature"
        },
        {
            "geometry": {
                "coordinates": [
                    2.2917792,
                    48.8426775
                ],
                "type": "Point"
            },
            "id": 260231833,
            "properties": {
                "id": "260231833",
                "station_label": "f lix faure"
            },
            "type": "Feature"
        },
        {
            "geometry": {
                "coordinates": [
                    2.3896692,
                    48.8390472
                ],
                "type": "Point"
            },
            "id": 260762378,
            "properties": {
                "id": "260762378",
                "station_label": "dugommier"
            },
            "type": "Feature"
        },
        {
            "geometry": {
                "coordinates": [
                    2.3960405333333337,
                    48.8396543
                ],
                "type": "Point"
            },
            "id": 2607623794317625,
            "properties": {
                "id": "2607623794317625",
                "station_label": "daumesnil"
            },
            "type": "Feature"
        },
        {
            "geometry": {
                "coordinates": [
                    2.3798735,
                    48.84016946666667
                ],
                "type": "Point"
            },
            "id": 2607625403146958,
            "properties": {
                "id": "2607625403146958",
                "station_label": "bercy"
            },
            "type": "Feature"
        },
        {
            "geometry": {
                "coordinates": [
                    2.3250319,
                    48.8411108
                ],
                "type": "Point"
            },
            "id": 260763474,
            "properties": {
                "id": "260763474",
                "station_label": "edgar quinet"
            },
            "type": "Feature"
        },
        {
            "geometry": {
                "coordinates": [
                    2.322568833333333,
                    48.84294915
                ],
                "type": "Point"
            },
            "id": 2607638923243639,
            "properties": {
                "id": "2607638923243639",
                "station_label": "montparnasse bienven\u00fce"
            },
            "type": "Feature"
        },
        {
            "geometry": {
                "coordinates": [
                    2.3128990000000003,
                    48.84268513333333
                ],
                "type": "Point"
            },
            "id": 2607642734317625,
            "properties": {
                "id": "2607642734317625",
                "station_label": "pasteur"
            },
            "type": "Feature"
        },
        {
            "geometry": {
                "coordinates": [
                    2.2935098,
                    48.871677
                ],
                "type": "Point"
            },
            "id": 260765385,
            "properties": {
                "id": "260765385",
                "station_label": "kl ber"
            },
            "type": "Feature"
        },
        {
            "geometry": {
                "coordinates": [
                    2.2900826,
                    48.8670167
                ],
                "type": "Point"
            },
            "id": 260765387,
            "properties": {
                "id": "260765387",
                "station_label": "boissi re"
            },
            "type": "Feature"
        },
        {
            "geometry": {
                "coordinates": [
                    2.285778,
                    48.8575009
                ],
                "type": "Point"
            },
            "id": 260765390,
            "properties": {
                "id": "260765390",
                "station_label": "passy"
            },
            "type": "Feature"
        },
        {
            "geometry": {
                "coordinates": [
                    2.2937783,
                    48.8646725
                ],
                "type": "Point"
            },
            "id": 260767422,
            "properties": {
                "id": "260767422",
                "station_label": "i na"
            },
            "type": "Feature"
        },
        {
            "geometry": {
                "coordinates": [
                    2.2780859,
                    48.8640063
                ],
                "type": "Point"
            },
            "id": 260767423,
            "properties": {
                "id": "260767423",
                "station_label": "rue de la pompe"
            },
            "type": "Feature"
        },
        {
            "geometry": {
                "coordinates": [
                    2.2741958,
                    48.8580816
                ],
                "type": "Point"
            },
            "id": 260767424,
            "properties": {
                "id": "260767424",
                "station_label": "la muette"
            },
            "type": "Feature"
        },
        {
            "geometry": {
                "coordinates": [
                    2.2702166,
                    48.8555764
                ],
                "type": "Point"
            },
            "id": 260767425,
            "properties": {
                "id": "260767425",
                "station_label": "ranelagh"
            },
            "type": "Feature"
        },
        {
            "geometry": {
                "coordinates": [
                    2.2681802,
                    48.8525598
                ],
                "type": "Point"
            },
            "id": 260767426,
            "properties": {
                "id": "260767426",
                "station_label": "jasmin"
            },
            "type": "Feature"
        },
        {
            "geometry": {
                "coordinates": [
                    2.2641332999999997,
                    48.84798586666667
                ],
                "type": "Point"
            },
            "id": 2607674274319966,
            "properties": {
                "id": "2607674274319966",
                "station_label": "michel ange auteuil"
            },
            "type": "Feature"
        },
        {
            "geometry": {
                "coordinates": [
                    2.2618715000000003,
                    48.845277333333335
                ],
                "type": "Point"
            },
            "id": 2607674285226630,
            "properties": {
                "id": "2607674285226630",
                "station_label": "michel ange molitor"
            },
            "type": "Feature"
        },
        {
            "geometry": {
                "coordinates": [
                    2.2600472,
                    48.8430044
                ],
                "type": "Point"
            },
            "id": 260767429,
            "properties": {
                "id": "260767429",
                "station_label": "exelmans"
            },
            "type": "Feature"
        },
        {
            "geometry": {
                "coordinates": [
                    2.2565741,
                    48.8377707
                ],
                "type": "Point"
            },
            "id": 260767430,
            "properties": {
                "id": "260767430",
                "station_label": "porte de saint cloud"
            },
            "type": "Feature"
        },
        {
            "geometry": {
                "coordinates": [
                    2.3006256,
                    48.8649686
                ],
                "type": "Point"
            },
            "id": 260769132,
            "properties": {
                "id": "260769132",
                "station_label": "alma marceau"
            },
            "type": "Feature"
        },
        {
            "geometry": {
                "coordinates": [
                    2.3100827,
                    48.8723362
                ],
                "type": "Point"
            },
            "id": 260769651,
            "properties": {
                "id": "260769651",
                "station_label": "saint philippe du roule"
            },
            "type": "Feature"
        },
        {
            "geometry": {
                "coordinates": [
                    2.3147080333333334,
                    48.873773433333334
                ],
                "type": "Point"
            },
            "id": 2607696525226630,
            "properties": {
                "id": "2607696525226630",
                "station_label": "miromesnil"
            },
            "type": "Feature"
        },
        {
            "geometry": {
                "coordinates": [
                    2.3270468333333336,
                    48.851510399999995
                ],
                "type": "Point"
            },
            "id": 2611628334091087,
            "properties": {
                "id": "2611628334091087",
                "station_label": "s vres babylone"
            },
            "type": "Feature"
        },
        {
            "geometry": {
                "coordinates": [
                    2.3058253,
                    48.903415800000005
                ],
                "type": "Point"
            },
            "id": 2616114704573025,
            "properties": {
                "id": "2616114704573025",
                "station_label": "mairie de clichy"
            },
            "type": "Feature"
        },
        {
            "geometry": {
                "coordinates": [
                    2.3202055,
                    48.8905558
                ],
                "type": "Point"
            },
            "id": 261611884,
            "properties": {
                "id": "261611884",
                "station_label": "brochant"
            },
            "type": "Feature"
        },
        {
            "geometry": {
                "coordinates": [
                    2.3257537,
                    48.8871746
                ],
                "type": "Point"
            },
            "id": 261612240,
            "properties": {
                "id": "261612240",
                "station_label": "la fourche"
            },
            "type": "Feature"
        },
        {
            "geometry": {
                "coordinates": [
                    2.3074897,
                    48.8470114
                ],
                "type": "Point"
            },
            "id": 261665825,
            "properties": {
                "id": "261665825",
                "station_label": "s gur"
            },
            "type": "Feature"
        },
        {
            "geometry": {
                "coordinates": [
                    2.2953191,
                    48.8470132
                ],
                "type": "Point"
            },
            "id": 261666122,
            "properties": {
                "id": "261666122",
                "station_label": "avenue mile zola"
            },
            "type": "Feature"
        },
        {
            "geometry": {
                "coordinates": [
                    2.3210551,
                    48.860697
                ],
                "type": "Point"
            },
            "id": 263497271,
            "properties": {
                "id": "263497271",
                "station_label": "assembl e nationale"
            },
            "type": "Feature"
        },
        {
            "geometry": {
                "coordinates": [
                    2.3230256,
                    48.8586528
                ],
                "type": "Point"
            },
            "id": 263497272,
            "properties": {
                "id": "263497272",
                "station_label": "solf rino"
            },
            "type": "Feature"
        },
        {
            "geometry": {
                "coordinates": [
                    2.3278803,
                    48.8481093
                ],
                "type": "Point"
            },
            "id": 263499468,
            "properties": {
                "id": "263499468",
                "station_label": "rennes"
            },
            "type": "Feature"
        },
        {
            "geometry": {
                "coordinates": [
                    2.3286803,
                    48.8452749
                ],
                "type": "Point"
            },
            "id": 263499471,
            "properties": {
                "id": "263499471",
                "station_label": "notre dame des champs"
            },
            "type": "Feature"
        },
        {
            "geometry": {
                "coordinates": [
                    2.325586025,
                    48.86991165
                ],
                "type": "Point"
            },
            "id": 2641173122641177,
            "properties": {
                "id": "2641173122641177",
                "station_label": "madeleine"
            },
            "type": "Feature"
        },
        {
            "geometry": {
                "coordinates": [
                    2.2938486,
                    48.8446757
                ],
                "type": "Point"
            },
            "id": 264469160,
            "properties": {
                "id": "264469160",
                "station_label": "commerce"
            },
            "type": "Feature"
        },
        {
            "geometry": {
                "coordinates": [
                    2.3060728,
                    48.8546647
                ],
                "type": "Point"
            },
            "id": 264469541,
            "properties": {
                "id": "264469541",
                "station_label": " cole militaire"
            },
            "type": "Feature"
        },
        {
            "geometry": {
                "coordinates": [
                    2.3103234,
                    48.8575602
                ],
                "type": "Point"
            },
            "id": 264473011,
            "properties": {
                "id": "264473011",
                "station_label": "la tour maubourg"
            },
            "type": "Feature"
        },
        {
            "geometry": {
                "coordinates": [
                    2.314656733333333,
                    48.860535766666665
                ],
                "type": "Point"
            },
            "id": 2644736951489806,
            "properties": {
                "id": "2644736951489806",
                "station_label": "invalides"
            },
            "type": "Feature"
        },
        {
            "geometry": {
                "coordinates": [
                    2.3666124,
                    48.8633194
                ],
                "type": "Point"
            },
            "id": 264476971,
            "properties": {
                "id": "264476971",
                "station_label": "filles du calvaire"
            },
            "type": "Feature"
        },
        {
            "geometry": {
                "coordinates": [
                    2.3672267,
                    48.8610965
                ],
                "type": "Point"
            },
            "id": 264479724,
            "properties": {
                "id": "264479724",
                "station_label": "saint s bastien froissart"
            },
            "type": "Feature"
        },
        {
            "geometry": {
                "coordinates": [
                    2.3681089,
                    48.8574497
                ],
                "type": "Point"
            },
            "id": 264479775,
            "properties": {
                "id": "264479775",
                "station_label": "chemin vert"
            },
            "type": "Feature"
        },
        {
            "geometry": {
                "coordinates": [
                    2.3760274,
                    48.8512945
                ],
                "type": "Point"
            },
            "id": 264480784,
            "properties": {
                "id": "264480784",
                "station_label": "ledru rollin"
            },
            "type": "Feature"
        },
        {
            "geometry": {
                "coordinates": [
                    2.3842222,
                    48.8501609
                ],
                "type": "Point"
            },
            "id": 264481019,
            "properties": {
                "id": "264481019",
                "station_label": "faidherbe chaligny"
            },
            "type": "Feature"
        },
        {
            "geometry": {
                "coordinates": [
                    2.3901962,
                    48.844304
                ],
                "type": "Point"
            },
            "id": 264481854,
            "properties": {
                "id": "264481854",
                "station_label": "montgallet"
            },
            "type": "Feature"
        },
        {
            "geometry": {
                "coordinates": [
                    2.4024586,
                    48.8370694
                ],
                "type": "Point"
            },
            "id": 264482226,
            "properties": {
                "id": "264482226",
                "station_label": "michel bizot"
            },
            "type": "Feature"
        },
        {
            "geometry": {
                "coordinates": [
                    2.406201,
                    48.8264064
                ],
                "type": "Point"
            },
            "id": 264482296,
            "properties": {
                "id": "264482296",
                "station_label": "libert "
            },
            "type": "Feature"
        },
        {
            "geometry": {
                "coordinates": [
                    2.4061775,
                    48.8352765
                ],
                "type": "Point"
            },
            "id": 264482297,
            "properties": {
                "id": "264482297",
                "station_label": "porte dor e"
            },
            "type": "Feature"
        },
        {
            "geometry": {
                "coordinates": [
                    2.40108,
                    48.8450751
                ],
                "type": "Point"
            },
            "id": 264490283,
            "properties": {
                "id": "264490283",
                "station_label": "picpus"
            },
            "type": "Feature"
        },
        {
            "geometry": {
                "coordinates": [
                    2.3664158,
                    48.8270333
                ],
                "type": "Point"
            },
            "id": 264491193,
            "properties": {
                "id": "264491193",
                "station_label": "olympiades"
            },
            "type": "Feature"
        },
        {
            "geometry": {
                "coordinates": [
                    2.3990408,
                    48.8322315
                ],
                "type": "Point"
            },
            "id": 264491320,
            "properties": {
                "id": "264491320",
                "station_label": "porte de charenton"
            },
            "type": "Feature"
        },
        {
            "geometry": {
                "coordinates": [
                    2.3326415,
                    48.8763251
                ],
                "type": "Point"
            },
            "id": 264495077,
            "properties": {
                "id": "264495077",
                "station_label": "trinit d estienne d orves"
            },
            "type": "Feature"
        },
        {
            "geometry": {
                "coordinates": [
                    2.3385437,
                    48.8759935
                ],
                "type": "Point"
            },
            "id": 264495078,
            "properties": {
                "id": "264495078",
                "station_label": "notre dame de lorette"
            },
            "type": "Feature"
        },
        {
            "geometry": {
                "coordinates": [
                    2.3256659,
                    48.8557241
                ],
                "type": "Point"
            },
            "id": 264495553,
            "properties": {
                "id": "264495553",
                "station_label": "rue du bac"
            },
            "type": "Feature"
        },
        {
            "geometry": {
                "coordinates": [
                    2.337458,
                    48.8784469
                ],
                "type": "Point"
            },
            "id": 264504832,
            "properties": {
                "id": "264504832",
                "station_label": "saint georges"
            },
            "type": "Feature"
        },
        {
            "geometry": {
                "coordinates": [
                    2.3379294,
                    48.8845677
                ],
                "type": "Point"
            },
            "id": 264505115,
            "properties": {
                "id": "264505115",
                "station_label": "abbesses"
            },
            "type": "Feature"
        },
        {
            "geometry": {
                "coordinates": [
                    2.3388254,
                    48.8897543
                ],
                "type": "Point"
            },
            "id": 264505153,
            "properties": {
                "id": "264505153",
                "station_label": "lamarck caulaincourt"
            },
            "type": "Feature"
        },
        {
            "geometry": {
                "coordinates": [
                    2.3446394,
                    48.8924628
                ],
                "type": "Point"
            },
            "id": 264505450,
            "properties": {
                "id": "264505450",
                "station_label": "jules joffrin"
            },
            "type": "Feature"
        },
        {
            "geometry": {
                "coordinates": [
                    2.3594563,
                    48.8977035
                ],
                "type": "Point"
            },
            "id": 264505930,
            "properties": {
                "id": "264505930",
                "station_label": "porte de la chapelle"
            },
            "type": "Feature"
        },
        {
            "geometry": {
                "coordinates": [
                    2.3478412,
                    48.8938481
                ],
                "type": "Point"
            },
            "id": 264505993,
            "properties": {
                "id": "264505993",
                "station_label": "simplon"
            },
            "type": "Feature"
        },
        {
            "geometry": {
                "coordinates": [
                    2.3495533,
                    48.8870769
                ],
                "type": "Point"
            },
            "id": 2645071004075421,
            "properties": {
                "id": "2645071004075421",
                "station_label": "ch teau rouge"
            },
            "type": "Feature"
        },
        {
            "geometry": {
                "coordinates": [
                    2.3582352428571434,
                    48.876362500000006
                ],
                "type": "Point"
            },
            "id": 2645085481481155,
            "properties": {
                "id": "2645085481481155",
                "station_label": "gare de l est"
            },
            "type": "Feature"
        },
        {
            "geometry": {
                "coordinates": [
                    2.349578033333333,
                    48.86397873333333
                ],
                "type": "Point"
            },
            "id": 2645097935527829,
            "properties": {
                "id": "2645097935527829",
                "station_label": " tienne marcel"
            },
            "type": "Feature"
        },
        {
            "geometry": {
                "coordinates": [
                    2.3563516,
                    48.8728869
                ],
                "type": "Point"
            },
            "id": 2645122525527859,
            "properties": {
                "id": "2645122525527859",
                "station_label": "ch teau d eau"
            },
            "type": "Feature"
        },
        {
            "geometry": {
                "coordinates": [
                    2.3458805666666667,
                    48.86246176666666
                ],
                "type": "Point"
            },
            "id": 2645136555527816,
            "properties": {
                "id": "2645136555527816",
                "station_label": "les halles"
            },
            "type": "Feature"
        },
        {
            "geometry": {
                "coordinates": [
                    2.3475476,
                    48.8552968
                ],
                "type": "Point"
            },
            "id": 264514896,
            "properties": {
                "id": "264514896",
                "station_label": "cit "
            },
            "type": "Feature"
        },
        {
            "geometry": {
                "coordinates": [
                    2.3435309,
                    48.8533014
                ],
                "type": "Point"
            },
            "id": 264515098,
            "properties": {
                "id": "264515098",
                "station_label": "saint michel"
            },
            "type": "Feature"
        },
        {
            "geometry": {
                "coordinates": [
                    2.3344604,
                    48.853638
                ],
                "type": "Point"
            },
            "id": 264519782,
            "properties": {
                "id": "264519782",
                "station_label": "saint germain des pr s"
            },
            "type": "Feature"
        },
        {
            "geometry": {
                "coordinates": [
                    2.3270286,
                    48.8471196
                ],
                "type": "Point"
            },
            "id": 264520061,
            "properties": {
                "id": "264520061",
                "station_label": "saint placide"
            },
            "type": "Feature"
        },
        {
            "geometry": {
                "coordinates": [
                    2.3290114,
                    48.8422164
                ],
                "type": "Point"
            },
            "id": 264526095,
            "properties": {
                "id": "264526095",
                "station_label": "vavin"
            },
            "type": "Feature"
        },
        {
            "geometry": {
                "coordinates": [
                    2.2858801,
                    48.8465262
                ],
                "type": "Point"
            },
            "id": 264534423,
            "properties": {
                "id": "264534423",
                "station_label": "charles michels"
            },
            "type": "Feature"
        },
        {
            "geometry": {
                "coordinates": [
                    2.2783035,
                    48.8461584
                ],
                "type": "Point"
            },
            "id": 264534424,
            "properties": {
                "id": "264534424",
                "station_label": "javel andr citro n"
            },
            "type": "Feature"
        },
        {
            "geometry": {
                "coordinates": [
                    2.2686929,
                    48.8473406
                ],
                "type": "Point"
            },
            "id": 264534683,
            "properties": {
                "id": "264534683",
                "station_label": " glise d auteuil"
            },
            "type": "Feature"
        },
        {
            "geometry": {
                "coordinates": [
                    2.2586493,
                    48.8479478
                ],
                "type": "Point"
            },
            "id": 264535735,
            "properties": {
                "id": "264535735",
                "station_label": "porte d auteuil"
            },
            "type": "Feature"
        },
        {
            "geometry": {
                "coordinates": [
                    2.267172,
                    48.845414
                ],
                "type": "Point"
            },
            "id": 264537727,
            "properties": {
                "id": "264537727",
                "station_label": "chardon lagache"
            },
            "type": "Feature"
        },
        {
            "geometry": {
                "coordinates": [
                    2.2717153000000003,
                    48.84681485
                ],
                "type": "Point"
            },
            "id": 2645385765226630,
            "properties": {
                "id": "2645385765226630",
                "station_label": "mirabeau"
            },
            "type": "Feature"
        },
        {
            "geometry": {
                "coordinates": [
                    2.238742,
                    48.841978
                ],
                "type": "Point"
            },
            "id": 264539964,
            "properties": {
                "id": "264539964",
                "station_label": "boulogne jean jaur s"
            },
            "type": "Feature"
        },
        {
            "geometry": {
                "coordinates": [
                    2.2285445,
                    48.8407449
                ],
                "type": "Point"
            },
            "id": 264541617,
            "properties": {
                "id": "264541617",
                "station_label": "boulogne pont de saint cloud"
            },
            "type": "Feature"
        },
        {
            "geometry": {
                "coordinates": [
                    2.3710845,
                    48.8699553
                ],
                "type": "Point"
            },
            "id": 264591604,
            "properties": {
                "id": "264591604",
                "station_label": "goncourt"
            },
            "type": "Feature"
        },
        {
            "geometry": {
                "coordinates": [
                    2.353809,
                    48.86178
                ],
                "type": "Point"
            },
            "id": 264592424,
            "properties": {
                "id": "264592424",
                "station_label": "rambuteau"
            },
            "type": "Feature"
        },
        {
            "geometry": {
                "coordinates": [
                    2.4064832333333332,
                    48.876967433333334
                ],
                "type": "Point"
            },
            "id": 2646903681997626,
            "properties": {
                "id": "2646903681997626",
                "station_label": "porte des lilas"
            },
            "type": "Feature"
        },
        {
            "geometry": {
                "coordinates": [
                    2.3990429,
                    48.875525
                ],
                "type": "Point"
            },
            "id": 264690370,
            "properties": {
                "id": "264690370",
                "station_label": "t l graphe"
            },
            "type": "Feature"
        },
        {
            "geometry": {
                "coordinates": [
                    2.3935714000000003,
                    48.87687963333334
                ],
                "type": "Point"
            },
            "id": 2646903711997723,
            "properties": {
                "id": "2646903711997723",
                "station_label": "place des f tes"
            },
            "type": "Feature"
        },
        {
            "geometry": {
                "coordinates": [
                    2.3852638,
                    48.8738565
                ],
                "type": "Point"
            },
            "id": 264690372,
            "properties": {
                "id": "264690372",
                "station_label": "pyr n es"
            },
            "type": "Feature"
        },
        {
            "geometry": {
                "coordinates": [
                    2.3893555,
                    48.8750834
                ],
                "type": "Point"
            },
            "id": 264692522,
            "properties": {
                "id": "264692522",
                "station_label": "jourdain"
            },
            "type": "Feature"
        },
        {
            "geometry": {
                "coordinates": [
                    2.3224866,
                    48.8386332
                ],
                "type": "Point"
            },
            "id": 264704365,
            "properties": {
                "id": "264704365",
                "station_label": "ga t "
            },
            "type": "Feature"
        },
        {
            "geometry": {
                "coordinates": [
                    2.3140252,
                    48.8317799
                ],
                "type": "Point"
            },
            "id": 264712432,
            "properties": {
                "id": "264712432",
                "station_label": "plaisance"
            },
            "type": "Feature"
        },
        {
            "geometry": {
                "coordinates": [
                    2.3180764,
                    48.8339551
                ],
                "type": "Point"
            },
            "id": 264712433,
            "properties": {
                "id": "264712433",
                "station_label": "pernety"
            },
            "type": "Feature"
        },
        {
            "geometry": {
                "coordinates": [
                    2.2984833,
                    48.8225032
                ],
                "type": "Point"
            },
            "id": 264717964,
            "properties": {
                "id": "264717964",
                "station_label": "malakoff plateau de vanves"
            },
            "type": "Feature"
        },
        {
            "geometry": {
                "coordinates": [
                    2.3704333,
                    48.8566333
                ],
                "type": "Point"
            },
            "id": 264769296,
            "properties": {
                "id": "264769296",
                "station_label": "br guet sabin"
            },
            "type": "Feature"
        },
        {
            "geometry": {
                "coordinates": [
                    2.3720741,
                    48.8602134
                ],
                "type": "Point"
            },
            "id": 264769297,
            "properties": {
                "id": "264769297",
                "station_label": "richard lenoir"
            },
            "type": "Feature"
        },
        {
            "geometry": {
                "coordinates": [
                    2.3794612,
                    48.8851633
                ],
                "type": "Point"
            },
            "id": 264772256,
            "properties": {
                "id": "264772256",
                "station_label": "laumi re"
            },
            "type": "Feature"
        },
        {
            "geometry": {
                "coordinates": [
                    2.3866783,
                    48.8870606
                ],
                "type": "Point"
            },
            "id": 264772371,
            "properties": {
                "id": "264772371",
                "station_label": "ourcq"
            },
            "type": "Feature"
        },
        {
            "geometry": {
                "coordinates": [
                    2.3926738,
                    48.8886492
                ],
                "type": "Point"
            },
            "id": 264772861,
            "properties": {
                "id": "264772861",
                "station_label": "porte de pantin"
            },
            "type": "Feature"
        },
        {
            "geometry": {
                "coordinates": [
                    2.4025383,
                    48.89128
                ],
                "type": "Point"
            },
            "id": 264772862,
            "properties": {
                "id": "264772862",
                "station_label": "hoche"
            },
            "type": "Feature"
        },
        {
            "geometry": {
                "coordinates": [
                    2.3663808666666664,
                    48.8817363
                ],
                "type": "Point"
            },
            "id": 2647755524318350,
            "properties": {
                "id": "2647755524318350",
                "station_label": "louis blanc"
            },
            "type": "Feature"
        },
        {
            "geometry": {
                "coordinates": [
                    2.3742226,
                    48.8884812
                ],
                "type": "Point"
            },
            "id": 264776028,
            "properties": {
                "id": "264776028",
                "station_label": "riquet"
            },
            "type": "Feature"
        },
        {
            "geometry": {
                "coordinates": [
                    2.3773681,
                    48.8908513
                ],
                "type": "Point"
            },
            "id": 264776029,
            "properties": {
                "id": "264776029",
                "station_label": "crim e"
            },
            "type": "Feature"
        },
        {
            "geometry": {
                "coordinates": [
                    2.3823046,
                    48.8947282
                ],
                "type": "Point"
            },
            "id": 264776910,
            "properties": {
                "id": "264776910",
                "station_label": "corentin cariou"
            },
            "type": "Feature"
        },
        {
            "geometry": {
                "coordinates": [
                    2.385591,
                    48.8974039
                ],
                "type": "Point"
            },
            "id": 264778142,
            "properties": {
                "id": "264778142",
                "station_label": "porte de la villette"
            },
            "type": "Feature"
        },
        {
            "geometry": {
                "coordinates": [
                    2.3402025,
                    48.87485383333333
                ],
                "type": "Point"
            },
            "id": 2647809465528174,
            "properties": {
                "id": "2647809465528174",
                "station_label": "le peletier"
            },
            "type": "Feature"
        },
        {
            "geometry": {
                "coordinates": [
                    2.34451,
                    48.875984566666666
                ],
                "type": "Point"
            },
            "id": 2647809475528174,
            "properties": {
                "id": "2647809475528174",
                "station_label": "cadet"
            },
            "type": "Feature"
        },
        {
            "geometry": {
                "coordinates": [
                    2.3421728666666666,
                    48.8585817
                ],
                "type": "Point"
            },
            "id": 2647841705527702,
            "properties": {
                "id": "2647841705527702",
                "station_label": "pont neuf"
            },
            "type": "Feature"
        },
        {
            "geometry": {
                "coordinates": [
                    2.3618174,
                    48.8513954
                ],
                "type": "Point"
            },
            "id": 264785951,
            "properties": {
                "id": "264785951",
                "station_label": "sully morland"
            },
            "type": "Feature"
        },
        {
            "geometry": {
                "coordinates": [
                    2.3565905,
                    48.8537872
                ],
                "type": "Point"
            },
            "id": 264785952,
            "properties": {
                "id": "264785952",
                "station_label": "pont marie"
            },
            "type": "Feature"
        },
        {
            "geometry": {
                "coordinates": [
                    2.3522772,
                    48.8429053
                ],
                "type": "Point"
            },
            "id": 264786014,
            "properties": {
                "id": "264786014",
                "station_label": "place monge"
            },
            "type": "Feature"
        },
        {
            "geometry": {
                "coordinates": [
                    2.3519334,
                    48.8406473
                ],
                "type": "Point"
            },
            "id": 264789025,
            "properties": {
                "id": "264789025",
                "station_label": "censier daubenton"
            },
            "type": "Feature"
        },
        {
            "geometry": {
                "coordinates": [
                    2.3527513,
                    48.8356445
                ],
                "type": "Point"
            },
            "id": 264790337,
            "properties": {
                "id": "264790337",
                "station_label": "les gobelins"
            },
            "type": "Feature"
        },
        {
            "geometry": {
                "coordinates": [
                    2.3990632,
                    48.8799345
                ],
                "type": "Point"
            },
            "id": 264794353,
            "properties": {
                "id": "264794353",
                "station_label": "pr saint gervais"
            },
            "type": "Feature"
        },
        {
            "geometry": {
                "coordinates": [
                    2.3933608,
                    48.8819444
                ],
                "type": "Point"
            },
            "id": 264794354,
            "properties": {
                "id": "264794354",
                "station_label": "danube"
            },
            "type": "Feature"
        },
        {
            "geometry": {
                "coordinates": [
                    2.4164717,
                    48.8797602
                ],
                "type": "Point"
            },
            "id": 264795933,
            "properties": {
                "id": "264795933",
                "station_label": "mairie des lilas"
            },
            "type": "Feature"
        },
        {
            "geometry": {
                "coordinates": [
                    2.4043104,
                    48.8715218
                ],
                "type": "Point"
            },
            "id": 264796181,
            "properties": {
                "id": "264796181",
                "station_label": "saint fargeau"
            },
            "type": "Feature"
        },
        {
            "geometry": {
                "coordinates": [
                    2.4013152,
                    48.8680997
                ],
                "type": "Point"
            },
            "id": 264796182,
            "properties": {
                "id": "264796182",
                "station_label": "pelleport"
            },
            "type": "Feature"
        },
        {
            "geometry": {
                "coordinates": [
                    2.3608491,
                    48.8382761
                ],
                "type": "Point"
            },
            "id": 265055434,
            "properties": {
                "id": "265055434",
                "station_label": "saint marcel"
            },
            "type": "Feature"
        },
        {
            "geometry": {
                "coordinates": [
                    2.3589273,
                    48.8356545
                ],
                "type": "Point"
            },
            "id": 265055750,
            "properties": {
                "id": "265055750",
                "station_label": "campo formio"
            },
            "type": "Feature"
        },
        {
            "geometry": {
                "coordinates": [
                    2.3273521,
                    48.8927239
                ],
                "type": "Point"
            },
            "id": 265060052,
            "properties": {
                "id": "265060052",
                "station_label": "guy m quet"
            },
            "type": "Feature"
        },
        {
            "geometry": {
                "coordinates": [
                    2.328869,
                    48.8971883
                ],
                "type": "Point"
            },
            "id": 265060832,
            "properties": {
                "id": "265060832",
                "station_label": "porte de saint ouen"
            },
            "type": "Feature"
        },
        {
            "geometry": {
                "coordinates": [
                    2.3317631,
                    48.9057701
                ],
                "type": "Point"
            },
            "id": 265060965,
            "properties": {
                "id": "265060965",
                "station_label": "garibaldi"
            },
            "type": "Feature"
        },
        {
            "geometry": {
                "coordinates": [
                    2.3573505,
                    48.8260904
                ],
                "type": "Point"
            },
            "id": 268467197,
            "properties": {
                "id": "268467197",
                "station_label": "tolbiac"
            },
            "type": "Feature"
        },
        {
            "geometry": {
                "coordinates": [
                    2.358504,
                    48.8224745
                ],
                "type": "Point"
            },
            "id": 268467526,
            "properties": {
                "id": "268467526",
                "station_label": "maison blanche"
            },
            "type": "Feature"
        },
        {
            "geometry": {
                "coordinates": [
                    2.359533,
                    48.8190866
                ],
                "type": "Point"
            },
            "id": 268467559,
            "properties": {
                "id": "268467559",
                "station_label": "porte d italie"
            },
            "type": "Feature"
        },
        {
            "geometry": {
                "coordinates": [
                    2.4038072,
                    48.9142573
                ],
                "type": "Point"
            },
            "id": 270244435,
            "properties": {
                "id": "270244435",
                "station_label": "fort d aubervilliers"
            },
            "type": "Feature"
        },
        {
            "geometry": {
                "coordinates": [
                    2.3922499,
                    48.9036279
                ],
                "type": "Point"
            },
            "id": 270244436,
            "properties": {
                "id": "270244436",
                "station_label": "aubervilliers pantin quatre chemins"
            },
            "type": "Feature"
        },
        {
            "geometry": {
                "coordinates": [
                    2.3143127999999997,
                    48.8675627
                ],
                "type": "Point"
            },
            "id": 2826351413703619,
            "properties": {
                "id": "2826351413703619",
                "station_label": "champs lys es clemenceau"
            },
            "type": "Feature"
        },
        {
            "geometry": {
                "coordinates": [
                    2.4347211,
                    48.8090371
                ],
                "type": "Point"
            },
            "id": 300870186,
            "properties": {
                "id": "300870186",
                "station_label": "maisons alfort stade"
            },
            "type": "Feature"
        },
        {
            "geometry": {
                "coordinates": [
                    2.4217316,
                    48.8150196
                ],
                "type": "Point"
            },
            "id": 300876896,
            "properties": {
                "id": "300876896",
                "station_label": " cole v t rinaire de maisons alfort"
            },
            "type": "Feature"
        },
        {
            "geometry": {
                "coordinates": [
                    2.4137829,
                    48.8215612
                ],
                "type": "Point"
            },
            "id": 300877457,
            "properties": {
                "id": "300877457",
                "station_label": "charenton coles"
            },
            "type": "Feature"
        },
        {
            "geometry": {
                "coordinates": [
                    2.3637903,
                    48.8051317
                ],
                "type": "Point"
            },
            "id": 318536832,
            "properties": {
                "id": "318536832",
                "station_label": "villejuif l o lagrange"
            },
            "type": "Feature"
        },
        {
            "geometry": {
                "coordinates": [
                    2.3622359,
                    48.810328
                ],
                "type": "Point"
            },
            "id": 318537042,
            "properties": {
                "id": "318537042",
                "station_label": "le kremlin bic tre"
            },
            "type": "Feature"
        },
        {
            "geometry": {
                "coordinates": [
                    2.3307247,
                    48.8511006
                ],
                "type": "Point"
            },
            "id": 324352448,
            "properties": {
                "id": "324352448",
                "station_label": "saint sulpice"
            },
            "type": "Feature"
        },
        {
            "geometry": {
                "coordinates": [
                    2.3624612,
                    48.8788951
                ],
                "type": "Point"
            },
            "id": 326309672,
            "properties": {
                "id": "326309672",
                "station_label": "ch teau landon"
            },
            "type": "Feature"
        },
        {
            "geometry": {
                "coordinates": [
                    2.360355966666667,
                    48.88440933333334
                ],
                "type": "Point"
            },
            "id": 3290967923417692,
            "properties": {
                "id": "3290967923417692",
                "station_label": "la chapelle"
            },
            "type": "Feature"
        },
        {
            "geometry": {
                "coordinates": [
                    2.4133107,
                    48.8932564
                ],
                "type": "Point"
            },
            "id": 330026020,
            "properties": {
                "id": "330026020",
                "station_label": " glise de pantin"
            },
            "type": "Feature"
        },
        {
            "geometry": {
                "coordinates": [
                    2.4491834000000003,
                    48.906405533333334
                ],
                "type": "Point"
            },
            "id": 3300278331771632,
            "properties": {
                "id": "3300278331771632",
                "station_label": "bobigny pablo picasso"
            },
            "type": "Feature"
        },
        {
            "geometry": {
                "coordinates": [
                    2.3270241,
                    48.8796037
                ],
                "type": "Point"
            },
            "id": 331514770,
            "properties": {
                "id": "331514770",
                "station_label": "li ge"
            },
            "type": "Feature"
        },
        {
            "geometry": {
                "coordinates": [
                    2.2893959,
                    48.8538982
                ],
                "type": "Point"
            },
            "id": 338930214,
            "properties": {
                "id": "338930214",
                "station_label": "bir hakeim"
            },
            "type": "Feature"
        },
        {
            "geometry": {
                "coordinates": [
                    2.2373655,
                    48.8317277
                ],
                "type": "Point"
            },
            "id": 355153536,
            "properties": {
                "id": "355153536",
                "station_label": "billancourt"
            },
            "type": "Feature"
        },
        {
            "geometry": {
                "coordinates": [
                    2.2308732,
                    48.8296613
                ],
                "type": "Point"
            },
            "id": 370455978,
            "properties": {
                "id": "370455978",
                "station_label": "pont de s vres"
            },
            "type": "Feature"
        },
        {
            "geometry": {
                "coordinates": [
                    2.398942266666667,
                    48.865094133333336
                ],
                "type": "Point"
            },
            "id": 4186386412002549,
            "properties": {
                "id": "4186386412002549",
                "station_label": "gambetta"
            },
            "type": "Feature"
        },
        {
            "geometry": {
                "coordinates": [
                    2.3647992,
                    48.8201086
                ],
                "type": "Point"
            },
            "id": 472985883,
            "properties": {
                "id": "472985883",
                "station_label": "porte de choisy"
            },
            "type": "Feature"
        },
        {
            "geometry": {
                "coordinates": [
                    2.3696521500000003,
                    48.82146845
                ],
                "type": "Point"
            },